{
    "44.6,-87.4": [
        {
            "name": "Algoma",
            "state": "Wisconsin",
            "beach_latitude": 44.609215,
            "beach_longitude": -87.427430,
            "jetty_obstructions": []
        }
    ],
    "27.8,-97.0": [
        {
            "name": "St Joes Island",
            "state": "Texas",
            "beach_latitude": 27.846859,
            "beach_longitude": -97.041237,
            "jetty_obstructions": [
                185
            ]
        }
    ],
    "39.4,-74.4": [
        {
            "name": "Crystals",
            "state": "New Jersey",
            "beach_latitude": 39.363360,
            "beach_longitude": -74.408385,
            "jetty_obstructions": []
        },
        {
            "name": "States Avenue",
            "state": "New Jersey",
            "beach_latitude": 39.358854,
            "beach_longitude": -74.417296,
            "jetty_obstructions": []
        },
        {
            "name": "South Carolina Avenue",
            "state": "New Jersey",
            "beach_latitude": 39.356771,
            "beach_longitude": -74.422876,
            "jetty_obstructions": []
        },
        {
            "name": "St. James",
            "state": "New Jersey",
            "beach_latitude": 39.355869,
            "beach_longitude": -74.424871,
            "jetty_obstructions": []
        },
        {
            "name": "Chicken Bone Beach",
            "state": "New Jersey",
            "beach_latitude": 39.353105,
            "beach_longitude": -74.436055,
            "jetty_obstructions": []
        }
    ],
    "35.2,-120.7": [
        {
            "name": "Shell Beach",
            "state": "New Jersey",
            "beach_latitude": 35.171216,
            "beach_longitude": -120.700244,
            "jetty_obstructions": []
        },
        {
            "name": "Avila Beach",
            "state": "New Jersey",
            "beach_latitude": 35.177941,
            "beach_longitude": -120.733977,
            "jetty_obstructions": []
        }
    ],
    "41.5,-82.1": [
        {
            "name": "Avon Lake",
            "state": "Ohio",
            "beach_latitude": 41.499515,
            "beach_longitude": -82.077570,
            "jetty_obstructions": []
        }
    ],
    "21.3,-158.1": [
        {
            "name": "Barbers Point",
            "state": "Hawaii",
            "beach_latitude": 21.295832,
            "beach_longitude": -158.106739,
            "jetty_obstructions": []
        },
        {
            "name": "White Plains Beach",
            "state": "Hawaii",
            "beach_latitude": 21.300149,
            "beach_longitude": -158.054779,
            "jetty_obstructions": []
        }
    ],
    "41.5,-81.9": [
        {
            "name": "Bay Village",
            "state": "Ohio",
            "beach_latitude": 41.491325,
            "beach_longitude": -81.934816,
            "jetty_obstructions": []
        }
    ],
    "33.0,-117.3": [
        {
            "name": "Beacons",
            "state": "California",
            "beach_latitude": 33.064754,
            "beach_longitude": -117.305891,
            "jetty_obstructions": []
        },
        {
            "name": "Grandview",
            "state": "California",
            "beach_latitude": 33.075472,
            "beach_longitude": -117.310306,
            "jetty_obstructions": []
        }
    ],
    "38.5,-75.0": [
        {
            "name": "Bethany Beach",
            "state": "Delaware",
            "beach_latitude": 38.541591,
            "beach_longitude": -75.053717,
            "jetty_obstructions": []
        }
    ],
    "46.9,-87.7": [
        {
            "name": "Big Bay",
            "state": "Michigan",
            "beach_latitude": 46.825589,
            "beach_longitude": -87.710700,
            "jetty_obstructions": []
        }
    ],
    "26.4,-81.9": [
        {
            "name": "Big Hickory Pass",
            "state": "Florida",
            "beach_latitude": 26.364243,
            "beach_longitude": -81.863257,
            "jetty_obstructions": []
        }
    ],
    "38.3,-123.1": [
        {
            "name": "Bodega Bay",
            "state": "California",
            "beach_latitude": 38.309913,
            "beach_longitude": -123.050796,
            "jetty_obstructions": []
        }
    ],
    "33.6,-118.3": [
        {
            "name": "Cabrillo Beach",
            "state": "California",
            "beach_latitude": 33.704019,
            "beach_longitude": -118.286696,
            "jetty_obstructions": [
                135,
                235
            ]
        },
        {
            "name": "White Point",
            "state": "California",
            "beach_latitude": 33.717701,
            "beach_longitude": -118.322562,
            "jetty_obstructions": []
        }
    ],
    "36.8,-121.8": [
        {
            "name": "La Selva Beach",
            "state": "California",
            "beach_latitude": 36.936766,
            "beach_longitude": -121.867894,
            "jetty_obstructions": []
        },
        {
            "name": "Manresa",
            "state": "California",
            "beach_latitude": 36.919112,
            "beach_longitude": -121.854734,
            "jetty_obstructions": []
        },
        {
            "name": "Moss Landing",
            "state": "California",
            "beach_latitude": 36.823423,
            "beach_longitude": -121.801581,
            "jetty_obstructions": [300]
        }
    ],
    "36.8,-122.0": [
        {
            "name": "Capitola",
            "state": "California",
            "beach_latitude": 36.971140,
            "beach_longitude": -121.950211,
            "jetty_obstructions": []
        },
        {
            "name": "Privates",
            "state": "California",
            "beach_latitude": 36.964430,
            "beach_longitude": -121.960807,
            "jetty_obstructions": []
        },
        {
            "name": "The Hook",
            "state": "California",
            "beach_latitude": 36.959633,
            "beach_longitude": -121.964935,
            "jetty_obstructions": []
        },
        {
            "name": "Jacks",
            "state": "California",
            "beach_latitude": 36.958544,
            "beach_longitude": -121.967246,
            "jetty_obstructions": []
        },
        {
            "name": "Pleasure Point",
            "state": "California",
            "beach_latitude": 36.954477,
            "beach_longitude": -121.972594,
            "jetty_obstructions": []
        },
        {
            "name": "Rockview",
            "state": "California",
            "beach_latitude": 36.954192,
            "beach_longitude": -121.975028,
            "jetty_obstructions": []
        },
        {
            "name": "Wind and Sea",
            "state": "California",
            "beach_latitude": 36.953829,
            "beach_longitude": -121.976242,
            "jetty_obstructions": []
        },
        {
            "name": "26th Avenue",
            "state": "California",
            "beach_latitude": 36.957491,
            "beach_longitude": -121.981785,
            "jetty_obstructions": []
        },
        {
            "name": "Sunny Cove",
            "state": "California",
            "beach_latitude": 36.959840,
            "beach_longitude": -121.989691,
            "jetty_obstructions": []
        },
        {
            "name": "Blacks Beach",
            "state": "California",
            "beach_latitude": 36.959778,
            "beach_longitude": -121.994631,
            "jetty_obstructions": []
        },
        {
            "name": "Cowells",
            "state": "California",
            "beach_latitude": 36.959595,
            "beach_longitude": -122.025052,
            "jetty_obstructions": []
        },
        {
            "name": "Steamer Lane",
            "state": "California",
            "beach_latitude": 36.951936,
            "beach_longitude": -122.025761,
            "jetty_obstructions": []
        },
        {
            "name": "Mitchells Cove",
            "state": "California",
            "beach_latitude": 36.951486,
            "beach_longitude": -122.042073,
            "jetty_obstructions": []
        },
        {
            "name": "Swift Street",
            "state": "California",
            "beach_latitude": 36.949612,
            "beach_longitude": -122.047478,
            "jetty_obstructions": []
        },
        {
            "name": "Natural Bridges",
            "state": "California",
            "beach_latitude": 36.948917,
            "beach_longitude": -122.061266,
            "jetty_obstructions": []
        },
        {
            "name": "Marina State Beach",
            "state": "California",
            "beach_latitude": 36.695688,
            "beach_longitude": -121.811183,
            "jetty_obstructions": []
        }
    ],
    "28.0,-82.8": [
        {
            "name": "Belleair",
            "state": "Florida",
            "beach_latitude": 27.923771,
            "beach_longitude": -82.845033,
            "jetty_obstructions": []
        },
        {
            "name": "Sand Key",
            "state": "Florida",
            "beach_latitude": 27.961906,
            "beach_longitude": -82.831969,
            "jetty_obstructions": [
                45
            ]
        },
        {
            "name": "880",
            "state": "Florida",
            "beach_latitude": 27.995828,
            "beach_longitude": -82.828699,
            "jetty_obstructions": []
        },
        {
            "name": "Pier 60",
            "state": "Florida",
            "beach_latitude": 27.979642,
            "beach_longitude": -82.831624,
            "jetty_obstructions": []
        }
    ],
    "42.0,-80.6": [
        {
            "name": "Conneaut",
            "state": "Ohio",
            "beach_latitude": 41.965526,
            "beach_longitude": -80.564275,
            "jetty_obstructions": []
        }
    ],
    "41.7,-124.2": [
        {
            "name": "South Beach CA",
            "state": "California",
            "beach_latitude": 41.745419,
            "beach_longitude": -124.178121,
            "jetty_obstructions": []
        }
    ],
    "30.2,-88.1": [
        {
            "name": "Dauphin Island",
            "state": "Alabama",
            "beach_latitude": 30.230929,
            "beach_longitude": -88.116866,
            "jetty_obstructions": []
        }
    ],
    "36.2,-75.7": [
        {
            "name": "Southern Duck",
            "state": "North Carolina",
            "beach_latitude": 36.158172,
            "beach_longitude": -75.739836,
            "jetty_obstructions": []
        },
        {
            "name": "Duck Pier",
            "state": "North Carolina",
            "beach_latitude": 36.182498,
            "beach_longitude": -75.750079,
            "jetty_obstructions": []
        }
    ],
    "41.7,-87.1": [
        {
            "name": "Dune Acres",
            "state": "Indiana",
            "beach_latitude": 41.657789,
            "beach_longitude": -87.081343,
            "jetty_obstructions": []
        }
    ],
    "42.5,-79.4": [
        {
            "name": "Dunkirk",
            "state": "New York",
            "beach_latitude": 42.493884,
            "beach_longitude": -79.355293,
            "jetty_obstructions": []
        }
    ],
    "41.5,-81.7": [
        {
            "name": "Edgewater Beach Buoy",
            "state": "Ohio",
            "beach_latitude": 41.488767,
            "beach_longitude": -81.741796,
            "jetty_obstructions": []
        }
    ],
    "41.6,-81.6": [
        {
            "name": "Euclid Beach",
            "state": "Ohio",
            "beach_latitude": 41.582238,
            "beach_longitude": -81.571496,
            "jetty_obstructions": []
        }
    ],
    "27.6,-97.2": [
        {
            "name": "Fish Pass / J.P Luby Surf Park / Aransas Pass",
            "state": "Texas",
            "beach_latitude": 27.674387,
            "beach_longitude": -97.166594,
            "jetty_obstructions": []
        }
    ],
    "43.5,-82.6": [
        {
            "name": "Forester / Port Sanilac",
            "state": "Michigan",
            "beach_latitude": 43.499044,
            "beach_longitude": -82.565987,
            "jetty_obstructions": []
        }
    ],
    "29.3,-94.8": [
        {
            "name": "51st Street",
            "state": "Texas",
            "beach_latitude": 29.272031,
            "beach_longitude": -94.814604,
            "jetty_obstructions": []
        },
        {
            "name": "61st Street",
            "state": "Texas",
            "beach_latitude": 29.263559,
            "beach_longitude": -94.822348,
            "jetty_obstructions": []
        },
        {
            "name": "43rd Street",
            "state": "Texas",
            "beach_latitude": 29.275248,
            "beach_longitude": -94.809249,
            "jetty_obstructions": []
        },
        {
            "name": "37th Street",
            "state": "Texas",
            "beach_latitude": 29.279920,
            "beach_longitude": -94.801623,
            "jetty_obstructions": []
        },
        {
            "name": "28th Street",
            "state": "Texas",
            "beach_latitude": 29.285274,
            "beach_longitude": -94.792845,
            "jetty_obstructions": []
        },
        {
            "name": "33rd Street",
            "state": "Texas",
            "beach_latitude": 29.281366,
            "beach_longitude": -94.798628,
            "jetty_obstructions": []
        },
        {
            "name": "Flagship",
            "state": "Texas",
            "beach_latitude": 29.286845,
            "beach_longitude": -94.790942,
            "jetty_obstructions": []
        }
    ],
    "46.7,-86.0": [
        {
            "name": "Grand Marais",
            "state": "Michigan",
            "beach_latitude": 47.749081,
            "beach_longitude": -90.331728,
            "jetty_obstructions": []
        }
    ],
    "41.8,-81.3": [
        {
            "name": "Headlands Beach",
            "state": "Ohio",
            "beach_latitude": 41.760240,
            "beach_longitude": -81.288136,
            "jetty_obstructions": []
        }
    ],
    "19.7,-155.1": [
        {
            "name": "Hilo Bay, Honoli'i",
            "state": "Hawaii",
            "beach_latitude": 19.755535,
            "beach_longitude": -155.090762,
            "jetty_obstructions": []
        }
    ],
    "26.6,-80.0": [
        {
            "name": "Hilton Hotel Backyard",
            "state": "Florida",
            "beach_latitude": 26.622158,
            "beach_longitude": -80.035814,
            "jetty_obstructions": []
        },
        {
            "name": "Lake Worth Pier",
            "state": "Florida",
            "beach_latitude": 26.612265,
            "beach_longitude": -80.036097,
            "jetty_obstructions": []
        },
        {
            "name": "Lantana Beach",
            "state": "Florida",
            "beach_latitude": 26.584857,
            "beach_longitude": -80.036982,
            "jetty_obstructions": []
        }
    ],
    "42.8,-86.2": [
        {
            "name": "Holland",
            "state": "Michigan",
            "beach_latitude": 42.771211,
            "beach_longitude": -86.211135,
            "jetty_obstructions": []
        }
    ],
    "26.0,-81.0": [
        {
            "name": "Hollywood Beach",
            "state": "Florida",
            "beach_latitude": 26.049974,
            "beach_longitude": -80.112049,
            "jetty_obstructions": []
        }
    ],
    "27.8,-97.1": [
        {
            "name": "Horace Caldwell Pier",
            "state": "Texas",
            "beach_latitude": 27.826973,
            "beach_longitude": -97.052765,
            "jetty_obstructions": [
                105
            ]
        }
    ],
    "40.8,-124.2": [
        {
            "name": "Humboldt Harbor",
            "state": "California",
            "beach_latitude": 40.767891,
            "beach_longitude": -124.232732,
            "jetty_obstructions": [
                225
            ]
        }
    ],
    "46.2,-124.1": [
        {
            "name": "Ilwaco / Clatsop Spit",
            "state": "Washington",
            "beach_latitude": 46.286787,
            "beach_longitude": -124.078968,
            "jetty_obstructions": []
        }
    ],
    "27.0,-96.7": [
        {
            "name": "Isla Blanca State Park",
            "state": "Texas",
            "beach_latitude": 26.069919,
            "beach_longitude": -97.154540,
            "jetty_obstructions": []
        }
    ],
    "28.4,-80.6": [
        {
            "name": "Jetty Park",
            "state": "Florida",
            "beach_latitude": 28.401314,
            "beach_longitude": -80.591028,
            "jetty_obstructions": [
                360
            ]
        },
        {
            "name": "Cocoa Beach Pier",
            "state": "Florida",
            "beach_latitude": 28.367524,
            "beach_longitude": -80.601916,
            "jetty_obstructions": []
        }
    ],
    "20.9,-156.5": [
        {
            "name": "Kahului Harbor",
            "state": "Hawaii",
            "beach_latitude": 20.898607,
            "beach_longitude": -156.458764,
            "jetty_obstructions": []
        }
    ],
    "21.4,-157.7": [
        {
            "name": "Kailua",
            "state": "Hawaii",
            "beach_latitude": 21.407651,
            "beach_longitude": -157.738988,
            "jetty_obstructions": []
        }
    ],
    "22.0,-159.3": [
        {
            "name": "Kalapaki Beach/Nawiliwili",
            "state": "Hawaii",
            "beach_latitude": 21.960121,
            "beach_longitude": -159.350203,
            "jetty_obstructions": []
        }
    ],
    "21.4,-157.8": [
        {
            "name": "Kanehoe Bay",
            "state": "Hawaii",
            "beach_latitude": 21.437943,
            "beach_longitude": -157.809484,
            "jetty_obstructions": []
        }
    ],
    "20.0,-155.9": [
        {
            "name": "Kawaihae",
            "state": "Hawaii",
            "beach_latitude": 20.026620,
            "beach_longitude": -155.826226,
            "jetty_obstructions": []
        }
    ],
    "24.6,-81.8": [
        {
            "name": "Key West",
            "state": "Florida",
            "beach_latitude": 24.567379,
            "beach_longitude": -81.775111,
            "jetty_obstructions": []
        }
    ],
    "32.8,-117.3": [
        {
            "name": "La Jolla",
            "state": "California",
            "beach_latitude": 32.838652,
            "beach_longitude": -117.284504,
            "jetty_obstructions": []
        }
    ],
    "43.0,-82.4": [
        {
            "name": "Lakeside Park",
            "state": "Ontario",
            "beach_latitude": 43.205400,
            "beach_longitude": -79.265084,
            "jetty_obstructions": []
        }
    ],
    "36.6,-121.9": [
        {
            "name": "Boneyard",
            "state": "California",
            "beach_latitude": 36.638008,
            "beach_longitude": -121.930661,
            "jetty_obstructions": []
        },
        {
            "name": "Lovers Point",
            "state": "California",
            "beach_latitude": 36.625992,
            "beach_longitude": -121.915609,
            "jetty_obstructions": []
        },
        {
            "name": "Monterey State Beach",
            "state": "California",
            "beach_latitude": 36.614121,
            "beach_longitude": -121.859240,
            "jetty_obstructions": []
        },
        {
            "name": "Monterey Bay",
            "state": "California",
            "beach_latitude": 36.607417,
            "beach_longitude": -121.891400,
            "jetty_obstructions": [280, 45]
        },
        {
            "name": "Monterey Wall",
            "state": "California",
            "beach_latitude": 36.602033,
            "beach_longitude": -121.888636,
            "jetty_obstructions": []
        },
        {
            "name": "Asilomar",
            "state": "California",
            "beach_latitude": 36.618746,
            "beach_longitude": -121.942575,
            "jetty_obstructions": []
        }
    ],
    "44.0,-86.5": [
        {
            "name": "Ludington",
            "state": "Michigan",
            "beach_latitude": 44.029420,
            "beach_longitude": -86.508050,
            "jetty_obstructions": []
        }
    ],
    "29.7,-93.7": [
        {
            "name": "Mae's Beach",
            "state": "Texas",
            "beach_latitude": 29.747483,
            "beach_longitude": -93.664330,
            "jetty_obstructions": []
        }
    ],
    "44.3,-86.4": [
        {
            "name": "Manistee",
            "state": "Michigan",
            "beach_latitude": 44.254277,
            "beach_longitude": -86.340356,
            "jetty_obstructions": []
        }
    ],
    "41.5,-82.7": [
        {
            "name": "Marblehead",
            "state": "Ohio",
            "beach_latitude": 41.535657,
            "beach_longitude": -82.711067,
            "jetty_obstructions": []
        }
    ],
    "46.6,-87.4": [
        {
            "name": "Marquette",
            "state": "Michigan",
            "beach_latitude": 46.565004,
            "beach_longitude": -87.388296,
            "jetty_obstructions": []
        }
    ],
    "25.8,-80.1": [
        {
            "name": "Miami Beach",
            "state": "Florida",
            "beach_latitude": 25.790866,
            "beach_longitude": -80.124474,
            "jetty_obstructions": []
        }
    ],
    "36.6,-121.8": [
        {
            "name": "Monterey",
            "state": "California",
            "beach_latitude": 36.607181,
            "beach_longitude": -121.892720,
            "jetty_obstructions": []
        }
    ],
    "43.2,-86.4": [
        {
            "name": "Muskegon",
            "state": "Michigan",
            "beach_latitude": 43.234126,
            "beach_longitude": -86.344160,
            "jetty_obstructions": []
        }
    ],
    "26.1,-81.8": [
        {
            "name": "Naples",
            "state": "Florida",
            "beach_latitude": 26.130792,
            "beach_longitude": -81.807312,
            "jetty_obstructions": []
        }
    ],
    "43.3,-79.1": [
        {
            "name": "Niagara Shores Park",
            "state": "Ontario",
            "beach_latitude": 43.265637,
            "beach_longitude": -79.057723,
            "jetty_obstructions": []
        }
    ],
    "41.4,-82.5": [
        {
            "name": "Nickel Plate Beach",
            "state": "Ohio",
            "beach_latitude": 41.397548,
            "beach_longitude": -82.538299,
            "jetty_obstructions": []
        }
    ],
    "38.3,-75.1": [
        {
            "name": "Ocean City",
            "state": "Maryland",
            "beach_latitude": 38.332247,
            "beach_longitude": -75.081495,
            "jetty_obstructions": []
        },
        {
            "name": "Midtown",
            "state": "Maryland",
            "beach_latitude": 38.364484,
            "beach_longitude": -75.069397,
            "jetty_obstructions": []
        }
    ],
    "33.9,-78.4": [
        {
            "name": "Ocean Isle Beach",
            "state": "North Carolina",
            "beach_latitude": 33.885488,
            "beach_longitude": -78.435278,
            "jetty_obstructions": []
        }
    ],
    "33.2,-117.4": [
        {
            "name": "Oceanside Pier",
            "state": "California",
            "beach_latitude": 33.194448,
            "beach_longitude": -117.385754,
            "jetty_obstructions": []
        },
        {
            "name": "Oceanside Harbor",
            "state": "California",
            "beach_latitude": 33.203069,
            "beach_longitude": -117.394209,
            "jetty_obstructions": [
                360
            ]
        },
        {
            "name": "Forster Street",
            "state": "California",
            "beach_latitude": 33.182264,
            "beach_longitude": -117.374733,
            "jetty_obstructions": []
        }
    ],
    "28.9,-95.3": [
        {
            "name": "Octagon",
            "state": "Texas",
            "beach_latitude": 28.942621,
            "beach_longitude": -95.289112,
            "jetty_obstructions": [
                225
            ]
        }
    ],
    "43.3,-78.7": [
        {
            "name": "Olcott Harbor",
            "state": "New York",
            "beach_latitude": 43.340189,
            "beach_longitude": -78.714378,
            "jetty_obstructions": []
        }
    ],
    "43.3,-77.6": [
        {
            "name": "Ontario Beach",
            "state": "New York",
            "beach_latitude": 43.261284,
            "beach_longitude": -77.608006,
            "jetty_obstructions": []
        }
    ],
    "41.7,-81.4": [
        {
            "name": "Overlook Beach Park",
            "state": "Ohio",
            "beach_latitude": 41.713571,
            "beach_longitude": -81.379248,
            "jetty_obstructions": []
        }
    ],
    "36.8,-121.9": [
        {
            "name": "Pajora Dunes",
            "state": "California",
            "beach_latitude": 36.808862,
            "beach_longitude": -121.791268,
            "jetty_obstructions": []
        }
    ],
    "30.2,-85.9": [
        {
            "name": "Panama City Beach",
            "state": "Florida",
            "beach_latitude": 30.217175,
            "beach_longitude": -85.893762,
            "jetty_obstructions": []
        }
    ],
    "38.9,-123.7": [
        {
            "name": "Point Arena",
            "state": "California",
            "beach_latitude": 38.9141231,
            "beach_longitude": -123.710810,
            "jetty_obstructions": []
        }
    ],
    "38.0,-123.0": [
        {
            "name": "Point Reyes",
            "state": "California",
            "beach_latitude": 38.047172,
            "beach_longitude": -122.995578,
            "jetty_obstructions": []
        }
    ],
    "28.4,-96.3": [
        {
            "name": "Port Oconnor Jetties",
            "state": "Texas",
            "beach_latitude": 28.419233,
            "beach_longitude": -96.334308,
            "jetty_obstructions": [
                45
            ]
        }
    ],
    "42.8, -124.8": [
        {
            "name": "Port Orford",
            "state": "Oregon",
            "beach_latitude": 42.740348,
            "beach_longitude": -124.497755,
            "jetty_obstructions": []
        }
    ],
    "42.9,-86.2": [
        {
            "name": "Port Sheldon / Holland Buoy",
            "state": "Michigan",
            "beach_latitude": 42.909950,
            "beach_longitude": -86.216215,
            "jetty_obstructions": []
        }
    ],
    "43.4,-87.9": [
        {
            "name": "Port Washington",
            "state": "Wisconsin",
            "beach_latitude": 43.391798,
            "beach_longitude": -87.863240,
            "jetty_obstructions": []
        }
    ],
    "48.5,-124.7": [
        {
            "name": "Ruby Beach",
            "state": "Washington",
            "beach_latitude": 47.710866,
            "beach_longitude": -124.416445,
            "jetty_obstructions": []
        },
        {
            "name": "Cape Flattery",
            "state": "Washington",
            "beach_latitude": 48.320284,
            "beach_longitude": -124.669786,
            "jetty_obstructions": []
        },
        {
            "name": "Shi Shi Beach",
            "state": "Washington",
            "beach_latitude": 48.262123,
            "beach_longitude": -124.684167,
            "jetty_obstructions": []
        },
        {
            "name": "Hobuck Beach",
            "state": "Washington",
            "beach_latitude": 48.337781,
            "beach_longitude": -124.665519,
            "jetty_obstructions": []
        },
        {
            "name": "La Push",
            "state": "Washington",
            "beach_latitude": 47.905682,
            "beach_longitude": -124.636998,
            "jetty_obstructions": []
        }
    ],
    "21.3,-157.9": [
        {
            "name": "Sand Island",
            "state": "Hawaii",
            "beach_latitude": 21.298808,
            "beach_longitude": -157.875462,
            "jetty_obstructions": []
        },
        {
            "name": "Kewalos",
            "state": "Hawaii",
            "beach_latitude": 21.289130,
            "beach_longitude": -157.858697,
            "jetty_obstructions": []
        },
        {
            "name": "Ala Moana Beach Park",
            "state": "Hawaii",
            "beach_latitude": 21.286830,
            "beach_longitude": -157.849387,
            "jetty_obstructions": []
        },
        {
            "name": "Ala Moana Bowls",
            "state": "Hawaii",
            "beach_latitude": 21.281244,
            "beach_longitude": -157.847342,
            "jetty_obstructions": []
        },
        {
            "name": "Rockpiles",
            "state": "Hawaii",
            "beach_latitude": 21.280389,
            "beach_longitude": -157.841559,
            "jetty_obstructions": []
        },
        {
            "name": "Kaisers",
            "state": "Hawaii",
            "beach_latitude": 21.277482,
            "beach_longitude": -157.841718,
            "jetty_obstructions": []
        },
        {
            "name": "Fours",
            "state": "Hawaii",
            "beach_latitude": 21.275677,
            "beach_longitude": -157.839946,
            "jetty_obstructions": []
        },
        {
            "name": "Threes",
            "state": "Hawaii",
            "beach_latitude": 21.277943,
            "beach_longitude": -157.835288,
            "jetty_obstructions": []
        },
        {
            "name": "Populars",
            "state": "Hawaii",
            "beach_latitude": 21.274256,
            "beach_longitude": -157.831290,
            "jetty_obstructions": []
        },
        {
            "name": "Waikiki Beach",
            "state": "Hawaii",
            "beach_latitude": 21.274914,
            "beach_longitude": -157.826130,
            "jetty_obstructions": []
        },
        {
            "name": "The Wall",
            "state": "Hawaii",
            "beach_latitude": 21.270996,
            "beach_longitude": -157.823666,
            "jetty_obstructions": [45]
        },
        {
            "name": "Publics",
            "state": "Hawaii",
            "beach_latitude": 21.269524,
            "beach_longitude": -157.823041,
            "jetty_obstructions": []
        },
        {
            "name": "Waikiki Kapi'olani Park",
            "state": "Hawaii",
            "beach_latitude": 21.267022,
            "beach_longitude": -157.823027,
            "jetty_obstructions": []
        }
    ],
    "34.4,-119.7": [
        {
            "name": "Mesa Lane",
            "state": "California",
            "beach_latitude": 34.396547,
            "beach_longitude": -119.731285,
            "jetty_obstructions": []
        },
        {
            "name": "Leadbetter Point",
            "state": "California",
            "beach_latitude": 34.398707,
            "beach_longitude": -119.701094,
            "jetty_obstructions": []
        },
        {
            "name": "The Pit",
            "state": "California",
            "beach_latitude": 34.402634,
            "beach_longitude": -119.744207,
            "jetty_obstructions": []
        },
        {
            "name": "Sand Spit",
            "state": "California",
            "beach_latitude": 34.403974,
            "beach_longitude": -119.688241,
            "jetty_obstructions": []
        }
    ],
    "34.0,-118.5": [
        {
            "name": "Santa Monica Beach North",
            "state": "California",
            "beach_latitude": 34.015780,
            "beach_longitude": -118.505775,
            "jetty_obstructions": []
        },
        {
            "name": "Will Rogers State Beach",
            "state": "California",
            "beach_latitude": 34.034737,
            "beach_longitude": -118.536754,
            "jetty_obstructions": [360]
        },
        {
            "name": "Sunset Beach",
            "state": "California",
            "beach_latitude": 34.038627,
            "beach_longitude": -118.551632,
            "jetty_obstructions": [360]
        },
        {
            "name": "Venice Breakwater",
            "state": "California",
            "beach_latitude": 33.984686,
            "beach_longitude": -118.474747,
            "jetty_obstructions": [360]
        },
        {
            "name": "Venice Beach",
            "state": "California",
            "beach_latitude": 33.982665,
            "beach_longitude": -118.472527,
            "jetty_obstructions": []
        },
        {
            "name": "Venice Beach Pier",
            "state": "California",
            "beach_latitude": 33.976734,
            "beach_longitude": -118.468440,
            "jetty_obstructions": []
        },
        {
            "name": "Santa Monica Beach South",
            "state": "California",
            "beach_latitude": 34.002850,
            "beach_longitude": -118.492160,
            "jetty_obstructions": []
        },
        {
            "name": "Santa Monica Pier",
            "state": "California",
            "beach_latitude": 34.007433,
            "beach_longitude": -118.498441,
            "jetty_obstructions": []
        }
    ],
    "27.9,-80.4": [
        {
            "name": "Sebastian Inlet",
            "state": "Florida",
            "beach_latitude": 27.863142,
            "beach_longitude": -80.447059,
            "jetty_obstructions": [
                135
            ]
        },
        {
            "name": "Spanish House",
            "state": "Florida",
            "beach_latitude": 27.877648,
            "beach_longitude": -80.454989,
            "jetty_obstructions": []
        },
        {
            "name": "Bonsteel Park",
            "state": "Florida",
            "beach_latitude": 27.900685,
            "beach_longitude": -80.469001,
            "jetty_obstructions": []
        }
    ],
    "43.8,-87.7": [
        {
            "name": "Sheboygan / North Point the Elbow",
            "state": "Wisconsin",
            "beach_latitude": 43.764084,
            "beach_longitude": -87.694549,
            "jetty_obstructions": []
        }
    ],
    "57.1,-135.4": [
        {
            "name": "Sitka",
            "state": "Alaska",
            "beach_latitude": 57.074964,
            "beach_longitude": -135.372887,
            "jetty_obstructions": []
        }
    ],
    "44.6,-124.1": [
        {
            "name": "South Beach",
            "state": "Oregon",
            "beach_latitude": 44.604965,
            "beach_longitude": -124.068044,
            "jetty_obstructions": [
                315
            ]
        },
        {
            "name": "Newport",
            "state": "Oregon",
            "beach_latitude": 44.636819,
            "beach_longitude": -124.064928,
            "jetty_obstructions": [
                315
            ]
        }
    ],
    "42.4,-86.3": [
        {
            "name": "South Haven",
            "state": "Michigan",
            "beach_latitude": 42.403940,
            "beach_longitude": -86.284202,
            "jetty_obstructions": []
        }
    ],
    "26.1,-97.2": [
        {
            "name": "South Padre Island",
            "state": "Texas",
            "beach_latitude": 26.100124,
            "beach_longitude": -97.161592,
            "jetty_obstructions": [
                180
            ]
        }
    ],
    "33.6,-118.2": [
        {
            "name": "Boca Chica State Beach",
            "state": "California",
            "beach_latitude": 33.695266,
            "beach_longitude": -118.049198,
            "jetty_obstructions": []
        },
        {
            "name": "HB Cliffs",
            "state": "California",
            "beach_latitude": 33.676272,
            "beach_longitude": -118.029169,
            "jetty_obstructions": []
        },
        {
            "name": "North HB Streets",
            "state": "California",
            "beach_latitude": 33.667090,
            "beach_longitude": -118.017902,
            "jetty_obstructions": []
        },
        {
            "name": "Huntington Beach Pier",
            "state": "California",
            "beach_latitude": 33.655307,
            "beach_longitude": -118.003461,
            "jetty_obstructions": []
        },
        {
            "name": "Huntington Street",
            "state": "California",
            "beach_latitude": 33.651835,
            "beach_longitude": -117.997313,
            "jetty_obstructions": []
        },
        {
            "name": "Huntington State Beach",
            "state": "California",
            "beach_latitude": 33.637511,
            "beach_longitude": -117.974436,
            "jetty_obstructions": []
        },
        {
            "name": "River Jetties",
            "state": "California",
            "beach_latitude": 33.627491,
            "beach_longitude": -117.958704,
            "jetty_obstructions": []
        },
        {
            "name": "Newport Upper Jetties",
            "state": "California",
            "beach_latitude": 33.622041,
            "beach_longitude": -117.944975,
            "jetty_obstructions": [315]
        },
        {
            "name": "Newport Lower Jetties",
            "state": "California",
            "beach_latitude": 33.615734,
            "beach_longitude": -117.936131,
            "jetty_obstructions": [45]
        }
    ],
    "33.7,-78.9": [
        {
            "name": "Myrtle Beach",
            "state": "South Carolina",
            "beach_latitude": 33.680565,
            "beach_longitude": -78.888490,
            "jetty_obstructions": []
        },
        {
            "name": "Springmaid Beach",
            "state": "South Carolina",
            "beach_latitude": 33.655957,
            "beach_longitude": -78.918484,
            "jetty_obstructions": []
        }
    ],
    "30.0,-81.1": [
        {
            "name": "St Augustine Pier",
            "state": "Florida",
            "beach_latitude": 29.853982,
            "beach_longitude": -81.264199,
            "jetty_obstructions": []
        }
    ],
    "42.1,-86.5": [
        {
            "name": "St. Joseph",
            "state": "Michigan",
            "beach_latitude": 42.110274,
            "beach_longitude": -86.491574,
            "jetty_obstructions": []
        }
    ],
    "42.2,-80.1": [
        {
            "name": "Stone Jetty",
            "state": "Pennsylvania",
            "beach_latitude": 42.159330,
            "beach_longitude": -80.127867,
            "jetty_obstructions": []
        }
    ],
    "44.2,-83.5": [
        {
            "name": "Tawas Point",
            "state": "Michigan",
            "beach_latitude": 44.244083,
            "beach_longitude": -83.448546,
            "jetty_obstructions": []
        }
    ],
    "45.4,-83.6": [
        {
            "name": "Thompson Park / Presque Isle Light",
            "state": "Michigan",
            "beach_latitude": 45.349499,
            "beach_longitude": -83.575321,
            "jetty_obstructions": []
        }
    ],
    "32.6,-117.2": [
        {
            "name": "Tijuana Slough",
            "state": "California",
            "beach_latitude": 32.554900,
            "beach_longitude": -117.129940,
            "jetty_obstructions": []
        },
        {
            "name": "Imperial Beach",
            "state": "California",
            "beach_latitude": 32.576549,
            "beach_longitude": -117.133397,
            "jetty_obstructions": []
        }
    ],
    "34.0,-118.6": [
        {
            "name": "Chart House",
            "state": "California",
            "beach_latitude": 34.039221,
            "beach_longitude": -118.575764,
            "jetty_obstructions": []
        },
        {
            "name": "Topanga Beach",
            "state": "California",
            "beach_latitude": 34.037156,
            "beach_longitude": -118.583817,
            "jetty_obstructions": []
        }
    ],
    "32.9,-117.3": [
        {
            "name": "Blacks",
            "state": "California",
            "beach_latitude": 32.887231,
            "beach_longitude": -117.254457,
            "jetty_obstructions": []
        }
    ],
    "40.9,-124.4": [
        {
            "name": "Trinidad",
            "state": "California",
            "beach_latitude": 41.058154,
            "beach_longitude": -124.150478,
            "jetty_obstructions": []
        },
        {
            "name": "College Cove",
            "state": "California",
            "beach_latitude": 41.066760,
            "beach_longitude": -124.151529,
            "jetty_obstructions": []
        },
        {
            "name": "Little River State Beach",
            "state": "California",
            "beach_latitude": 41.014467,
            "beach_longitude": -124.113895,
            "jetty_obstructions": []
        }
    ],
    "27.1,-82.5": [
        {
            "name": "Venice Jetties South",
            "state": "Florida",
            "beach_latitude": 27.110876,
            "beach_longitude": -82.466537,
            "jetty_obstructions": [360]
        },
        {
            "name": "Venice Jetties North",
            "state": "Florida",
            "beach_latitude": 27.113502,
            "beach_longitude": -82.469164,
            "jetty_obstructions": [180]
        },
        {
            "name": "Venice Pier",
            "state": "Florida",
            "beach_latitude": 27.075220,
            "beach_longitude": -82.452824,
            "jetty_obstructions": []
        }
    ],
    "41.4,-82.4": [
        {
            "name": "Vermillion",
            "state": "Ohio",
            "beach_latitude": 41.425392,
            "beach_longitude": -82.365717,
            "jetty_obstructions": []
        }
    ],
    "36.9,-75.7": [
        {
            "name": "South End, Virginia Beach",
            "state": "Virginia",
            "beach_latitude": 36.843334,
            "beach_longitude": -75.971288,
            "jetty_obstructions": []
        },
        {
            "name": "First Street Jetty",
            "state": "Virginia",
            "beach_latitude": 36.830613,
            "beach_longitude": -75.967801,
            "jetty_obstructions": [42]
        },
        {
            "name": "Croatan Jetty",
            "state": "Virginia",
            "beach_latitude": 36.828403,
            "beach_longitude": -75.968253,
            "jetty_obstructions": [150]
        },
        {
            "name": "Camp Pendleton",
            "state": "Virginia",
            "beach_latitude": 36.817018,
            "beach_longitude": -75.965751,
            "jetty_obstructions": []
        }
    ],
    "33.4,-117.7": [
        {
            "name": "Doheny State Beach",
            "state": "California",
            "beach_latitude": 33.461336,
            "beach_longitude": -117.685357,
            "jetty_obstructions": [45]
        },
        {
            "name": "Poche Beach",
            "state": "California",
            "beach_latitude": 33.440579,
            "beach_longitude": -117.646122,
            "jetty_obstructions": []
        },
        {
            "name": "204s",
            "state": "California",
            "beach_latitude": 33.424916,
            "beach_longitude": -117.626860,
            "jetty_obstructions": []
        },
        {
            "name": "San Clemente Pier Northside",
            "state": "California",
            "beach_latitude": 33.420088,
            "beach_longitude": -117.621472,
            "jetty_obstructions": []
        },
        {
            "name": "T-Street",
            "state": "California",
            "beach_latitude": 33.416215,
            "beach_longitude": -117.618186,
            "jetty_obstructions": []
        },
        {
            "name": "San Clemente State Beach",
            "state": "California",
            "beach_latitude": 33.403752,
            "beach_longitude": -117.606183,
            "jetty_obstructions": []
        }
    ],
    "41.7,-86.9": [
        {
            "name": "Washington Park",
            "state": "Indiana",
            "beach_latitude": 41.729564,
            "beach_longitude": -86.902540,
            "jetty_obstructions": []
        }
    ],
    "33.3,-117.7": [
        {
            "name": "Cottons",
            "state": "California",
            "beach_latitude": 33.390880,
            "beach_longitude": -117.598600,
            "jetty_obstructions": []
        },
        {
            "name": "Upper Trestles",
            "state": "California",
            "beach_latitude": 33.384838,
            "beach_longitude": -117.594210,
            "jetty_obstructions": []
        },
        {
            "name": "Lower Trestles",
            "state": "California",
            "beach_latitude": 33.381859,
            "beach_longitude": -117.587048,
            "jetty_obstructions": []
        },
        {
            "name": "Middles",
            "state": "California",
            "beach_latitude": 33.381137,
            "beach_longitude": -117.581826,
            "jetty_obstructions": []
        },
        {
            "name": "Church",
            "state": "California",
            "beach_latitude": 33.380196,
            "beach_longitude": -117.578030,
            "jetty_obstructions": []
        },
        {
            "name": "San Onofre State Beach",
            "state": "California",
            "beach_latitude": 33.372630,
            "beach_longitude": -117.565711,
            "jetty_obstructions": []
        }
    ],
    "32.7,-79.9": [
        {
            "name": "Washout",
            "state": "South Carolina",
            "beach_latitude": 32.668123,
            "beach_longitude": -79.908185,
            "jetty_obstructions": []
        },
        {
            "name": "Folly Beach Pier",
            "state": "South Carolina",
            "beach_latitude": 32.654621,
            "beach_longitude": -79.939052,
            "jetty_obstructions": []
        },
        {
            "name": "10th Street",
            "state": "South Carolina",
            "beach_latitude": 32.662694,
            "beach_longitude": -79.920162,
            "jetty_obstructions": []
        }
    ],
    "17.1,-157.8": [
        {
            "name": "Pine Trees",
            "state": "Hawaii",
            "beach_latitude": 19.694632,
            "beach_longitude": -156.044815,
            "jetty_obstructions": []
        },
        {
            "name": "Honokohau Beach",
            "state": "Hawaii",
            "beach_latitude": 19.672208,
            "beach_longitude": -156.026352,
            "jetty_obstructions": []
        },
        {
            "name": "Kaiwi Point",
            "state": "Hawaii",
            "beach_latitude": 19.657903,
            "beach_longitude": -156.032898,
            "jetty_obstructions": []
        },
        {
            "name": "Old Kona Airport",
            "state": "Hawaii",
            "beach_latitude": 19.643571,
            "beach_longitude": -156.011442,
            "jetty_obstructions": []
        },
        {
            "name": "Honl's",
            "state": "Hawaii",
            "beach_latitude": 19.628347,
            "beach_longitude": -155.988577,
            "jetty_obstructions": []
        },
        {
            "name": "Banyans",
            "state": "Hawaii",
            "beach_latitude": 19.605859,
            "beach_longitude": -155.977261,
            "jetty_obstructions": []
        },
        {
            "name": "Lymans",
            "state": "Hawaii",
            "beach_latitude": 19.603221,
            "beach_longitude": -155.975157,
            "jetty_obstructions": []
        },
        {
            "name": "Magic Sands Beach",
            "state": "Hawaii",
            "beach_latitude": 19.594265,
            "beach_longitude": -155.972207,
            "jetty_obstructions": []
        },
        {
            "name": "Kahalu'u Bay",
            "state": "Hawaii",
            "beach_latitude": 19.580140,
            "beach_longitude": -155.967153,
            "jetty_obstructions": []
        },
        {
            "name": "Pohue Bay Beach",
            "state": "Hawaii",
            "beach_latitude": 19.010198,
            "beach_longitude": -155.797619,
            "jetty_obstructions": []
        },
        {
            "name": "South Point",
            "state": "Hawaii",
            "beach_latitude": 18.910942,
            "beach_longitude": -155.678225,
            "jetty_obstructions": []
        }
    ],
    "17.5,-152.2": [
        {
            "name": "Pohoiki",
            "state": "Hawaii",
            "beach_latitude": 19.455748,
            "beach_longitude": -154.843092,
            "jetty_obstructions": []
        }
    ],
    "21.7,-158.1": [
        {
            "name": "Hale'iwa",
            "state": "Hawaii",
            "beach_latitude": 21.596780,
            "beach_longitude": -158.108090,
            "jetty_obstructions": []
        },
        {
            "name": "Pua'ena Point",
            "state": "Hawaii",
            "beach_latitude": 21.603861,
            "beach_longitude": -158.107127,
            "jetty_obstructions": []
        },
        {
            "name": "Laniakea",
            "state": "Hawaii",
            "beach_latitude": 21.618635,
            "beach_longitude": -158.086869,
            "jetty_obstructions": []
        },
        {
            "name": "Hultin's",
            "state": "Hawaii",
            "beach_latitude": 21.621598,
            "beach_longitude": -158.085507,
            "jetty_obstructions": []
        },
        {
            "name": "Jocko's",
            "state": "Hawaii",
            "beach_latitude": 21.622585,
            "beach_longitude": -158.083136,
            "jetty_obstructions": []
        },
        {
            "name": "Chun's",
            "state": "Hawaii",
            "beach_latitude": 21.624520,
            "beach_longitude": -158.081698,
            "jetty_obstructions": []
        },
        {
            "name": "Waimea Bay",
            "state": "Hawaii",
            "beach_latitude": 21.642418,
            "beach_longitude": -158.066441,
            "jetty_obstructions": []
        },
        {
            "name": "Log Cabins",
            "state": "Hawaii",
            "beach_latitude": 21.657114,
            "beach_longitude": -158.060597,
            "jetty_obstructions": []
        },
        {
            "name": "Rockpile",
            "state": "Hawaii",
            "beach_latitude": 21.662377,
            "beach_longitude": -158.055440,
            "jetty_obstructions": []
        },
        {
            "name": "Off The Wall",
            "state": "Hawaii",
            "beach_latitude": 21.662862,
            "beach_longitude": -158.054197,
            "jetty_obstructions": []
        },
        {
            "name": "Backdoor",
            "state": "Hawaii",
            "beach_latitude": 21.665667,
            "beach_longitude": -158.051670,
            "jetty_obstructions": []
        },
        {
            "name": "Pipeline",
            "state": "Hawaii",
            "beach_latitude": 21.666231,
            "beach_longitude": -158.051092,
            "jetty_obstructions": []
        },
        {
            "name": "Ehukai Beach Park",
            "state": "Hawaii",
            "beach_latitude": 21.666677,
            "beach_longitude": -158.050455,
            "jetty_obstructions": []
        },
        {
            "name": "Pupukea",
            "state": "Hawaii",
            "beach_latitude": 21.667806,
            "beach_longitude": -158.048805,
            "jetty_obstructions": []
        },
        {
            "name": "Rocky Point",
            "state": "Hawaii",
            "beach_latitude": 21.670329,
            "beach_longitude": -158.047515,
            "jetty_obstructions": []
        },
        {
            "name": "Sunset Beach",
            "state": "Hawaii",
            "beach_latitude": 21.678123,
            "beach_longitude": -158.039775,
            "jetty_obstructions": []
        },
        {
            "name": "Freddieland",
            "state": "Hawaii",
            "beach_latitude": 21.682222,
            "beach_longitude": -158.033150,
            "jetty_obstructions": []
        },
        {
            "name": "Velzyland",
            "state": "Hawaii",
            "beach_latitude": 21.684270,
            "beach_longitude": -158.032445,
            "jetty_obstructions": []
        }
    ],
    "20.8,-157.0": [
        {
            "name": "Manele Bay",
            "state": "Hawaii",
            "beach_latitude": 20.735920,
            "beach_longitude": -156.893443,
            "jetty_obstructions": []
        },
        {
            "name": "Lopa Beach",
            "state": "Hawaii",
            "beach_latitude": 20.805295,
            "beach_longitude": -156.806917,
            "jetty_obstructions": []
        },
        {
            "name": "Lahaina Harbor - Breakwall",
            "state": "Hawaii",
            "beach_latitude": 20.868315,
            "beach_longitude": -156.677092,
            "jetty_obstructions": []
        },
        {
            "name": "Launiupoko",
            "state": "Hawaii",
            "beach_latitude": 20.841506,
            "beach_longitude": -156.652109,
            "jetty_obstructions": []
        },
        {
            "name": "Olowalu",
            "state": "Hawaii",
            "beach_latitude": 20.808911,
            "beach_longitude": -156.622707,
            "jetty_obstructions": []
        },
                {
            "name": "Ukumehame",
            "state": "Hawaii",
            "beach_latitude": 20.794262,
            "beach_longitude": -156.581509,
            "jetty_obstructions": []
        }
    ],
    "29.1,-95.1": [
        {
            "name": "West Galveston",
            "state": "Texas",
            "beach_latitude": 29.135522,
            "beach_longitude": -95.038515,
            "jetty_obstructions": []
        }
    ],
    "46.9,-124.1": [
        {
            "name": "Westport",
            "state": "Washington",
            "beach_latitude": 46.899714,
            "beach_longitude": -124.135850,
            "jetty_obstructions": [
                360
            ]
        },
        {
            "name": "Half Moon Bay",
            "state": "Washington",
            "beach_latitude": 46.906013,
            "beach_longitude": -124.122983,
            "jetty_obstructions": []
        }
    ],
    "43.1,-87.9": [
        {
            "name": "Whitefish Bay",
            "state": "Wisconsin",
            "beach_latitude": 43.115884,
            "beach_longitude": -87.891638,
            "jetty_obstructions": []
        }
    ],
    "42.7,-87.8": [
        {
            "name": "Winthrop Harbor",
            "state": "Wisconsin",
            "beach_latitude": 42.475099,
            "beach_longitude": -87.797379,
            "jetty_obstructions": []
        }
    ],
    "34.1,-77.7": [
        {
            "name": "Wrightsville Beach",
            "state": "North Carolina",
            "beach_latitude": 34.205376,
            "beach_longitude": -77.789106,
            "jetty_obstructions": []
        },
        {
            "name": "Blockade Runner",
            "state": "North Carolina",
            "beach_latitude": 34.199813,
            "beach_longitude": -77.794066,
            "jetty_obstructions": []
        },
        {
            "name": "Johnnie Mercers Pier",
            "state": "North Carolina",
            "beach_latitude": 34.213300,
            "beach_longitude": -77.784559,
            "jetty_obstructions": []
        },
        {
            "name": "Crystal Pier",
            "state": "North Carolina",
            "beach_latitude": 34.192885,
            "beach_longitude": -77.804347,
            "jetty_obstructions": []
        },
        {
            "name": "South End, Wrightsville Beach",
            "state": "North Carolina",
            "beach_latitude": 34.190384,
            "beach_longitude": -77.805817,
            "jetty_obstructions": []
        }
    ],
    "59.5,-139.8": [
        {
            "name": "Yakutat",
            "state": "Alaska",
            "beach_latitude": 59.504150,
            "beach_longitude": -139.766792,
            "jetty_obstructions": []
        }
    ]
}