{
    "44.6,-87.4": {"name": "Algoma", "state": "Wisconsin", "exact_latitude": "44.609215", "exact_longitude": "-87-427430"},
    "27.8,-97.0": {"name": "Aransas Pass", "state": "Texas", "exact_latitude": "27.846859", "exact_longitude": "-97.041237"},
    "39.4,-74.4": {"name": "Atlantic City", "state": "New Jersey", "exact_latitude": "39.352590", "exact_longitude": "-74.428619"},
    "35.2,-120.7": {"name": "Avila Beach", "state": "New Jersey", "exact_latitude": "35.177941", "exact_longitude": "-120.733977"},
    "41.5,-82.1": {"name": "Avon Lake", "state": "Ohio", "exact_latitude": "41.499515", "exact_longitude": "-82.077570"},
    "21.3,-158.1": {"name": "Barbers Point", "state": "Hawaii", "exact_latitude": "21.295832", "exact_longitude": "-158.106739"},
    "41.5,-81.9": {"name": "Bay Village", "state": "Ohio", "exact_latitude": "41.491325", "exact_longitude": "-81.934816"},
    "33.0,-117.3": {"name": "Beacons / Leucadia", "state": "California", "exact_latitude": "33.064754", "exact_longitude": "-117.305891"},
    "38.5,-75.0": {"name": "Bethany Beach", "state": "Delaware", "exact_latitude": "38.541591", "exact_longitude": "-75.053717"},
    "46.9,-87.7": {"name": "Big Bay", "state": "Michigan", "exact_latitude": "46.825589", "exact_longitude": "-87.710700"},
    "26.4,-81.9": {"name": "Big Hickory Pass", "state": "Florida", "exact_latitude": "26.364243", "exact_longitude": "-81.863257"},
    "38.3,-123.1": {"name": "Bodega Bay", "state": "California", "exact_latitude": "38.309913", "exact_longitude": "-123.050796"},
    "33.7,-118.3": {"name": "Cabrillo Beach", "state": "California", "exact_latitude": "33.708348", "exact_longitude": "-118.284228"},
    "37.0,-121.9": {"name": "Capitola / La Silva", "state": "California", "exact_latitude": "36.971140", "exact_longitude": "-121.950211"},
    "28.0,-82.8": {"name": "Clearwater Beach", "state": "Florida", "exact_latitude": "27.979642", "exact_longitude": "-82.831624"},
    "42.0,-80.6": {"name": "Conneaut", "state": "Ohio", "exact_latitude": "41.965526", "exact_longitude": "-80.564275"},
    "41.7,-124.2": {"name": "Crescent City", "state": "California", "exact_latitude": "41.745419", "exact_longitude": "-124.178121"},
    "30.2,-88.1": {"name": "Dauphin Island", "state": "Alabama", "exact_latitude": "30.230929", "exact_longitude": "-88.116866"},
    "36.2,-75.7": {"name": "Duck Pier", "state": "North Carolina", "exact_latitude": "36.182498", "exact_longitude": "-75.750079"},
    "41.7,-87.1": {"name": "Dune Acres", "state": "Indiana", "exact_latitude": "41.657789", "exact_longitude": "-87.081343"},
    "42.5,-79.4": {"name": "Dunkirk", "state": "New York", "exact_latitude": "42.493884", "exact_longitude": "-79.355293"},
    "41.5,-81.7": {"name": "Edgewater Beach Buoy", "state": "Ohio", "exact_latitude": "41.488767", "exact_longitude": "-81.741796"},
    "41.6,-81.6": {"name": "Euclid Beach", "state": "Ohio", "exact_latitude": "41.582238", "exact_longitude": "-81.571496"},
    "27.6,-97.2": {"name": "Fish Pass / J.P Luby Surf Park / Aransas Pass", "state": "Texas", "exact_latitude": "27.674387", "exact_longitude": "-97.166594"},
    "43.5,-82.6": {"name": "Forester / Port Sanilac", "state": "Michigan", "exact_latitude": "43.499044", "exact_longitude": "-82.565987"},
    "29.3,-94.8": {"name": "Galveston", "state": "Texas", "exact_latitude": "29.263559", "exact_longitude": "-94.822348"},
    "46.7,-86.0": {"name": "Grand Marais", "state": "Michigan", "exact_latitude": "47.749081", "exact_longitude": "-90.331728"},
    "41.8,-81.3": {"name": "Headlands Beach", "state": "Ohio", "exact_latitude": "41.760240", "exact_longitude": "-81.288136"},
    "19.7,-155.1": {"name": "Hilo Bay, Honoli'i", "state": "Hawaii", "exact_latitude": "19.755535", "exact_longitude": "-155.090762"},
    "26.6,-80.0": {"name": "Hilton Hotel Backyard", "state": "Florida", "exact_latitude": "26.622158", "exact_longitude": "-80.035814"},
    "42.8,-86.2": {"name": "Holland", "state": "Michigan", "exact_latitude": "42.771211", "exact_longitude": "-86.211135"},
    "26.0,-80.0": {"name": "Hollywood Beach", "state": "Florida", "exact_latitude": "26.049974", "exact_longitude": "-80.112049"},
    "27.8,-97.1": {"name": "Horace Caldwell Pier", "state": "Texas", "exact_latitude": "27.826973", "exact_longitude": "-97.052765"},
    "40.8,-124.2": {"name": "Humboldt Harbor", "state": "California", "exact_latitude": "40.767891", "exact_longitude": "-124.232732"},
    "46.3,-124.1": {"name": "Ilwaco / Clatsop Spit", "state": "Washington", "exact_latitude": "", "exact_longitude": ""},
    "26.1,-97.1": {"name": "Isla Blanca State Park", "state": "Texas", "exact_latitude": "", "exact_longitude": ""},
    "28.4,-80.6": {"name": "Jetty Park / Cape Carneval", "state": "Florida", "exact_latitude": "", "exact_longitude": ""},
    "20.9,-156.5": {"name": "Kahului Harbor", "state": "Hawaii", "exact_latitude": "", "exact_longitude": ""},
    "21.4,-157.7": {"name": "Kailua", "state": "Hawaii", "exact_latitude": "", "exact_longitude": ""},
    "22.0,-159.3": {"name": "Kalapaki Beach/Nawiliwili", "state": "Hawaii", "exact_latitude": "", "exact_longitude": ""},
    "21.4,-157.8": {"name": "Kanehoe Bay", "state": "Hawaii", "exact_latitude": "", "exact_longitude": ""},
    "20.0,-155.9": {"name": "Kawaihae", "state": "Hawaii", "exact_latitude": "", "exact_longitude": ""},
    "24.6,-81.8": {"name": "Key West", "state": "Florida", "exact_latitude": "", "exact_longitude": ""},
    "32.8,-117.3": {"name": "La Jolla", "state": "California", "exact_latitude": "", "exact_longitude": ""},
    "47.9,-124.2": {"name": "La Push", "state": "Washington", "exact_latitude": "", "exact_longitude": ""},
    "43.0,-82.4": {"name": "Lakeside Park", "state": "Ontario", "exact_latitude": "", "exact_longitude": ""},
    "36.6,-121.9": {"name": "Lovers Point", "state": "California", "exact_latitude": "", "exact_longitude": ""},
    "44.0,-86.5": {"name": "Ludington", "state": "Michigan", "exact_latitude": "", "exact_longitude": ""},
    "29.7,-93.7": {"name": "Mae's Beach", "state": "Los Angeles", "exact_latitude": "", "exact_longitude": ""},
    "44.3,-86.4": {"name": "Manistee", "state": "Michigan", "exact_latitude": "", "exact_longitude": ""},
    "41.5,-82.7": {"name": "Marblehead", "state": "Ohio", "exact_latitude": "", "exact_longitude": ""},
    "46.6,-87.4": {"name": "Marquette", "state": "Michigan", "exact_latitude": "", "exact_longitude": ""},
    "25.8,-80.1": {"name": "Miami Beach", "state": "Florida", "exact_latitude": "", "exact_longitude": ""},
    "36.6,-121.8": {"name": "Monterey", "state": "California", "exact_latitude": "", "exact_longitude": ""},
    "43.2,-86.4": {"name": "Muskegon", "state": "Michigan", "exact_latitude": "", "exact_longitude": ""},
    "26.1,-81.8": {"name": "Naples", "state": "Florida", "exact_latitude": "", "exact_longitude": ""},
    "43.3,-79.1": {"name": "Niagara Shores Park", "state": "Ontario", "exact_latitude": "", "exact_longitude": ""},
    "41.4,-82.5": {"name": "Nickel Plate Beach", "state": "Ohio", "exact_latitude": "", "exact_longitude": ""},
    "38.3,-75.1": {"name": "Ocean City", "state": "Maryland", "exact_latitude": "", "exact_longitude": ""},
    "33.9,-78.4": {"name": "Ocean Isle Beach", "state": "North Carolina", "exact_latitude": "", "exact_longitude": ""},
    "33.2,-117.4": {"name": "Oceanside", "state": "California", "exact_latitude": "", "exact_longitude": ""},
    "28.9,-95.3": {"name": "Octagon", "state": "Texas", "exact_latitude": "", "exact_longitude": ""},
    "43.3,-78.7": {"name": "Olcott Harbor", "state": "New York", "exact_latitude": "", "exact_longitude": ""},
    "43.3,-77.6": {"name": "Ontario Beach", "state": "New York", "exact_latitude": "", "exact_longitude": ""},
    "41.7,-81.4": {"name": "Overlook Beach Park", "state": "Ohio", "exact_latitude": "", "exact_longitude": ""},
    "36.8,-121.9": {"name": "Pajora Dunes", "state": "California", "exact_latitude": "", "exact_longitude": ""},
    "30.2,-85.9": {"name": "Panama City Beach", "state": "Florida", "exact_latitude": "", "exact_longitude": ""},
    "38.9,-123.7": {"name": "Point Arena", "state": "California", "exact_latitude": "", "exact_longitude": ""},
    "38.0,-123.0": {"name": "Point Reyes", "state": "California", "exact_latitude": "", "exact_longitude": ""},
    "28.4,-96.3": {"name": "Port Oconnor Jetties", "state": "Texas", "exact_latitude": "", "exact_longitude": ""},
    "42.7, -124.5": {"name": "Port Orford", "state": "Oregon", "exact_latitude": "", "exact_longitude": ""},
    "42.9,-86.2": {"name": "Port Sheldon / Holland Buoy", "state": "Michigan", "exact_latitude": "", "exact_longitude": ""},
    "43.4,-87.9": {"name": "Port Washington", "state": "Wisconsin", "exact_latitude": "", "exact_longitude": ""},
    "47.7,-124.4": {"name": "Ruby Beach / Destruction Island", "state": "California", "exact_latitude": "", "exact_longitude": ""},
    "21.3,-157.9": {"name": "Sand Island", "state": "Hawaii", "exact_latitude": "", "exact_longitude": ""},
    "34.4,-119.7": {"name": "Santa Barbara", "state": "California", "exact_latitude": "", "exact_longitude": ""},
    "34.0,-118.5": {"name": "Santa Monica Pier", "state": "California", "exact_latitude": "", "exact_longitude": ""},
    "27.9,-80.4": {"name": "Sebastian Inlet", "state": "Florida", "exact_latitude": "", "exact_longitude": ""},
    "43.8,-87.7": {"name": "Sheboygan / North Point the Elbow", "state": "Wisconsin", "exact_latitude": "", "exact_longitude": ""},
    "57.1,-135.4": {"name": "Sitka", "state": "Alaska", "exact_latitude": "", "exact_longitude": ""},
    "44.6,-124.1": {"name": "South Beach", "state": "Oregon", "exact_latitude": "", "exact_longitude": ""},
    "42.4,-86.3": {"name": "South Haven", "state": "Michigan", "exact_latitude": "", "exact_longitude": ""},
    "26.1,-97.2": {"name": "South Padre Island", "state": "Texas", "exact_latitude": "", "exact_longitude": ""},
    "33.7,-78.9": {"name": "Springmaid Beach", "state": "South Carolina", "exact_latitude": "", "exact_longitude": ""},
    "29.8,-81.3": {"name": "St Augustine Pier", "state": "Florida", "exact_latitude": "", "exact_longitude": ""},
    "42.1,-86.5": {"name": "St. Joseph", "state": "Michigan", "exact_latitude": "", "exact_longitude": ""},
    "42.2,-80.1": {"name": "Stone Jetty", "state": "Pennsylvania", "exact_latitude": "", "exact_longitude": ""},
    "44.2,-83.5": {"name": "Tawas Point", "state": "Michigan", "exact_latitude": "", "exact_longitude": ""},
    "45.4,-83.6": {"name": "Thompson Park / Presque Isle Light", "state": "Michigan", "exact_latitude": "", "exact_longitude": ""},
    "32.6,-117.2": {"name": "Tijuana Slough / Imperial Beach", "state": "California", "exact_latitude": "", "exact_longitude": ""},
    "34.0,-118.6": {"name": "Topanga Beach", "state": "California", "exact_latitude": "", "exact_longitude": ""},
    "32.9,-117.3": {"name": "Torrey Pines", "state": "California", "exact_latitude": "", "exact_longitude": ""},
    "41.1,-124.1": {"name": "Trinidad", "state": "California", "exact_latitude": "", "exact_longitude": ""},
    "27.1,-82.5": {"name": "Venice", "state": "Florida", "exact_latitude": "", "exact_longitude": ""},
    "41.4,-82.4": {"name": "Vermillion", "state": "Ohio", "exact_latitude": "", "exact_longitude": ""},
    "36.9,-75.7": {"name": "Virgina Beach", "state": "Virginia", "exact_latitude": "", "exact_longitude": ""},
    "41.7,-86.9": {"name": "Washington Park", "state": "Indiana", "exact_latitude": "", "exact_longitude": ""},
    "32.7,-79.9": {"name": "Washout", "state": "South Carolina", "exact_latitude": "", "exact_longitude": ""},
    "29.1,-95.1": {"name": "West Galveston", "state": "Texas", "exact_latitude": "", "exact_longitude": ""},
    "46.9,-124.1": {"name": "Westport", "state": "Washington", "exact_latitude": "", "exact_longitude": ""},
    "43.1,-87.9": {"name": "Whitefish Bay", "state": "Wisconsin", "exact_latitude": "", "exact_longitude": ""},
    "42.7,-87.8": {"name": "Winthrop Harbor", "state": "Wisconsin", "exact_latitude": "", "exact_longitude": ""},
    "34.2,-77.8": {"name": "Wrightsville Beach", "state": "North Carolina", "exact_latitude": "", "exact_longitude": ""},
    "59.5,-139.8": {"name": "Yakutat", "state": "Alaska", "exact_latitude": "", "exact_longitude": ""}
}