{
    "44.6,-87.4": {"name": "Algoma", "state": "Wisconsin", "precise_latitude": "44.609215", "precise_longitude": "-87.427430"}, 
    "27.8,-97.0": {"name": "Aransas Pass", "state": "Texas", "precise_latitude": "27.846859", "precise_longitude": "-97.041237"},
    "39.4,-74.4": {"name": "Atlantic City", "state": "New Jersey", "precise_latitude": "39.352590", "precise_longitude": "-74.428619"},
    "35.2,-120.7": {"name": "Avila Beach", "state": "New Jersey", "precise_latitude": "35.177941", "precise_longitude": "-120.733977"},
    "41.5,-82.1": {"name": "Avon Lake", "state": "Ohio", "precise_latitude": "41.499515", "precise_longitude": "-82.077570"},
    "21.3,-158.1": {"name": "Barbers Point", "state": "Hawaii", "precise_latitude": "21.295832", "precise_longitude": "-158.106739"},
    "41.5,-81.9": {"name": "Bay Village", "state": "Ohio", "precise_latitude": "41.491325", "precise_longitude": "-81.934816"},
    "33.0,-117.3": {"name": "Beacons / Leucadia", "state": "California", "precise_latitude": "33.064754", "precise_longitude": "-117.305891"},
    "38.5,-75.0": {"name": "Bethany Beach", "state": "Delaware", "precise_latitude": "38.541591", "precise_longitude": "-75.053717"},
    "46.9,-87.7": {"name": "Big Bay", "state": "Michigan", "precise_latitude": "46.825589", "precise_longitude": "-87.710700"},
    "26.4,-81.9": {"name": "Big Hickory Pass", "state": "Florida", "precise_latitude": "26.364243", "precise_longitude": "-81.863257"},
    "38.3,-123.1": {"name": "Bodega Bay", "state": "California", "precise_latitude": "38.309913", "precise_longitude": "-123.050796"},
    "33.7,-118.3": {"name": "Cabrillo Beach", "state": "California", "precise_latitude": "33.708348", "precise_longitude": "-118.284228"},
    "37.0,-121.9": {"name": "Capitola / La Silva", "state": "California", "precise_latitude": "36.971140", "precise_longitude": "-121.950211"},
    "28.0,-82.8": {"name": "Clearwater Beach", "state": "Florida", "precise_latitude": "27.979642", "precise_longitude": "-82.831624"},
    "42.0,-80.6": {"name": "Conneaut", "state": "Ohio", "precise_latitude": "41.965526", "precise_longitude": "-80.564275"},
    "41.7,-124.2": {"name": "Crescent City", "state": "California", "precise_latitude": "41.745419", "precise_longitude": "-124.178121"},
    "30.2,-88.1": {"name": "Dauphin Island", "state": "Alabama", "precise_latitude": "30.230929", "precise_longitude": "-88.116866"},
    "36.2,-75.7": {"name": "Duck Pier", "state": "North Carolina", "precise_latitude": "36.182498", "precise_longitude": "-75.750079"},
    "41.7,-87.1": {"name": "Dune Acres", "state": "Indiana", "precise_latitude": "41.657789", "precise_longitude": "-87.081343"},
    "42.5,-79.4": {"name": "Dunkirk", "state": "New York", "precise_latitude": "42.493884", "precise_longitude": "-79.355293"},
    "41.5,-81.7": {"name": "Edgewater Beach Buoy", "state": "Ohio", "precise_latitude": "41.488767", "precise_longitude": "-81.741796"},
    "41.6,-81.6": {"name": "Euclid Beach", "state": "Ohio", "precise_latitude": "41.582238", "precise_longitude": "-81.571496"},
    "27.6,-97.2": {"name": "Fish Pass / J.P Luby Surf Park / Aransas Pass", "state": "Texas", "precise_latitude": "27.674387", "precise_longitude": "-97.166594"},
    "43.5,-82.6": {"name": "Forester / Port Sanilac", "state": "Michigan", "precise_latitude": "43.499044", "precise_longitude": "-82.565987"},
    "29.3,-94.8": {"name": "Galveston", "state": "Texas", "precise_latitude": "29.263559", "precise_longitude": "-94.822348"},
    "46.7,-86.0": {"name": "Grand Marais", "state": "Michigan", "precise_latitude": "47.749081", "precise_longitude": "-90.331728"},
    "41.8,-81.3": {"name": "Headlands Beach", "state": "Ohio", "precise_latitude": "41.760240", "precise_longitude": "-81.288136"},
    "19.7,-155.1": {"name": "Hilo Bay, Honoli'i", "state": "Hawaii", "precise_latitude": "19.755535", "precise_longitude": "-155.090762"},
    "26.6,-80.0": {"name": "Hilton Hotel Backyard", "state": "Florida", "precise_latitude": "26.622158", "precise_longitude": "-80.035814"},
    "42.8,-86.2": {"name": "Holland", "state": "Michigan", "precise_latitude": "42.771211", "precise_longitude": "-86.211135"},
    "26.0,-80.0": {"name": "Hollywood Beach", "state": "Florida", "precise_latitude": "26.049974", "precise_longitude": "-80.112049"},
    "27.8,-97.1": {"name": "Horace Caldwell Pier", "state": "Texas", "precise_latitude": "27.826973", "precise_longitude": "-97.052765"},
    "40.8,-124.2": {"name": "Humboldt Harbor", "state": "California", "precise_latitude": "40.767891", "precise_longitude": "-124.232732"},
    "46.3,-124.1": {"name": "Ilwaco / Clatsop Spit", "state": "Washington", "precise_latitude": "46.286787", "precise_longitude": "-124.078968"},
    "26.1,-97.1": {"name": "Isla Blanca State Park", "state": "Texas", "precise_latitude": "26.069919", "precise_longitude": "-97.154540"},
    "28.4,-80.6": {"name": "Jetty Park / Cape Carneval", "state": "Florida", "precise_latitude": "28.401314", "precise_longitude": "-80.591028"},
    "20.9,-156.5": {"name": "Kahului Harbor", "state": "Hawaii", "precise_latitude": "20.898607", "precise_longitude": "-156.458764"},
    "21.4,-157.7": {"name": "Kailua", "state": "Hawaii", "precise_latitude": "21.407651", "precise_longitude": "-157.738988"},
    "22.0,-159.3": {"name": "Kalapaki Beach/Nawiliwili", "state": "Hawaii", "precise_latitude": "21.960121", "precise_longitude": "-159.350203"},
    "21.4,-157.8": {"name": "Kanehoe Bay", "state": "Hawaii", "precise_latitude": "21.437943", "precise_longitude": "-157.809484"},
    "20.0,-155.9": {"name": "Kawaihae", "state": "Hawaii", "precise_latitude": "20.026620", "precise_longitude": "-155.826226"},
    "24.6,-81.8": {"name": "Key West", "state": "Florida", "precise_latitude": "24.567379", "precise_longitude": "-81.775111"},
    "32.8,-117.3": {"name": "La Jolla", "state": "California", "precise_latitude": "32.838652", "precise_longitude": "-117.284504"},
    "47.9,-124.2": {"name": "La Push", "state": "Washington", "precise_latitude": "47.905682", "precise_longitude": "-124.636998"},
    "43.0,-82.4": {"name": "Lakeside Park", "state": "Ontario", "precise_latitude": "43.205400", "precise_longitude": "-79.265084"},
    "36.6,-121.9": {"name": "Lovers Point", "state": "California", "precise_latitude": "36.625992", "precise_longitude": "-121.915609"},
    "44.0,-86.5": {"name": "Ludington", "state": "Michigan", "precise_latitude": "44.029420", "precise_longitude": "-86.508050"},
    "29.7,-93.7": {"name": "Mae's Beach", "state": "Texas", "precise_latitude": "29.747483", "precise_longitude": "-93.664330"},
    "44.3,-86.4": {"name": "Manistee", "state": "Michigan", "precise_latitude": "44.254277", "precise_longitude": "-86.340356"},
    "41.5,-82.7": {"name": "Marblehead", "state": "Ohio", "precise_latitude": "41.535657", "precise_longitude": "-82.711067"},
    "46.6,-87.4": {"name": "Marquette", "state": "Michigan", "precise_latitude": "46.565004", "precise_longitude": "-87.388296"},
    "25.8,-80.1": {"name": "Miami Beach", "state": "Florida", "precise_latitude": "25.790866", "precise_longitude": "-80.124474"},
    "36.6,-121.8": {"name": "Monterey", "state": "California", "precise_latitude": "36.607181", "precise_longitude": "-121.892720"},
    "43.2,-86.4": {"name": "Muskegon", "state": "Michigan", "precise_latitude": "43.234126", "precise_longitude": "-86.344160"},
    "26.1,-81.8": {"name": "Naples", "state": "Florida", "precise_latitude": "26.130792", "precise_longitude": "-81.807312"},
    "43.3,-79.1": {"name": "Niagara Shores Park", "state": "Ontario", "precise_latitude": "43.265637", "precise_longitude": "-79.057723"},
    "41.4,-82.5": {"name": "Nickel Plate Beach", "state": "Ohio", "precise_latitude": "41.397548", "precise_longitude": "-82.538299"},
    "38.3,-75.1": {"name": "Ocean City", "state": "Maryland", "precise_latitude": "38.332247", "precise_longitude": "-75.081495"},
    "33.9,-78.4": {"name": "Ocean Isle Beach", "state": "North Carolina", "precise_latitude": "33.885488", "precise_longitude": "-78.435278"},
    "33.2,-117.4": {"name": "Oceanside", "state": "California", "precise_latitude": "33.203896", "precise_longitude": "-117.395556"},
    "28.9,-95.3": {"name": "Octagon", "state": "Texas", "precise_latitude": "28.942621", "precise_longitude": "-95.289112"},
    "43.3,-78.7": {"name": "Olcott Harbor", "state": "New York", "precise_latitude": "43.340189", "precise_longitude": "-78.714378"},
    "43.3,-77.6": {"name": "Ontario Beach", "state": "New York", "precise_latitude": "43.261284", "precise_longitude": "-77.608006"},
    "41.7,-81.4": {"name": "Overlook Beach Park", "state": "Ohio", "precise_latitude": "41.713571", "precise_longitude": "-81.379248"},
    "36.8,-121.9": {"name": "Pajora Dunes", "state": "California", "precise_latitude": "36.808862", "precise_longitude": "-121.791268"},
    "30.2,-85.9": {"name": "Panama City Beach", "state": "Florida", "precise_latitude": "30.217175", "precise_longitude": "-85.893762"},
    "38.9,-123.7": {"name": "Point Arena", "state": "California", "precise_latitude": "38.9141231", "precise_longitude": "-123.710810"},
    "38.0,-123.0": {"name": "Point Reyes", "state": "California", "precise_latitude": "38.047172", "precise_longitude": "-122.995578"},
    "28.4,-96.3": {"name": "Port Oconnor Jetties", "state": "Texas", "precise_latitude": "28.419233", "precise_longitude": "-96.334308"},
    "42.7, -124.5": {"name": "Port Orford", "state": "Oregon", "precise_latitude": "42.740348", "precise_longitude": "-124.497755"},
    "42.9,-86.2": {"name": "Port Sheldon / Holland Buoy", "state": "Michigan", "precise_latitude": "42.909950", "precise_longitude": "-86.216215"},
    "43.4,-87.9": {"name": "Port Washington", "state": "Wisconsin", "precise_latitude": "43.391798", "precise_longitude": "-87.863240"},
    "47.7,-124.4": {"name": "Ruby Beach / Destruction Island", "state": "Washington", "precise_latitude": "47.710866", "precise_longitude": "-124.416445"},
    "21.3,-157.9": {"name": "Sand Island", "state": "Hawaii", "precise_latitude": "21.298808", "precise_longitude": "-157.875462"},
    "34.4,-119.7": {"name": "Santa Barbara", "state": "California", "precise_latitude": "34.401106", "precise_longitude": "-119.697845"},
    "34.0,-118.5": {"name": "Santa Monica Pier", "state": "California", "precise_latitude": "34.000477", "precise_longitude": "-118.494444"},
    "27.9,-80.4": {"name": "Sebastian Inlet", "state": "Florida", "precise_latitude": "27.863142", "precise_longitude": "-80.447059"},
    "43.8,-87.7": {"name": "Sheboygan / North Point the Elbow", "state": "Wisconsin", "precise_latitude": "43.764084", "precise_longitude": "-87.694549"},
    "57.1,-135.4": {"name": "Sitka", "state": "Alaska", "precise_latitude": "57.074964", "precise_longitude": "-135.372887"},
    "44.6,-124.1": {"name": "South Beach", "state": "Oregon", "precise_latitude": "44.604965", "precise_longitude": "-124.068044"},
    "42.4,-86.3": {"name": "South Haven", "state": "Michigan", "precise_latitude": "42.403940", "precise_longitude": "-86.284202"},
    "26.1,-97.2": {"name": "South Padre Island", "state": "Texas", "precise_latitude": "26.100124", "precise_longitude": "-97.161592"},
    "33.7,-78.9": {"name": "Springmaid Beach", "state": "South Carolina", "precise_latitude": "33.680565", "precise_longitude": "-78.888490"},
    "29.8,-81.3": {"name": "St Augustine Pier", "state": "Florida", "precise_latitude": "29.853982", "precise_longitude": "-81.264199"},
    "42.1,-86.5": {"name": "St. Joseph", "state": "Michigan", "precise_latitude": "42.110274", "precise_longitude": "-86.491574"},
    "42.2,-80.1": {"name": "Stone Jetty", "state": "Pennsylvania", "precise_latitude": "42.159330", "precise_longitude": "-80.127867"},
    "44.2,-83.5": {"name": "Tawas Point", "state": "Michigan", "precise_latitude": "44.244083", "precise_longitude": "-83.448546"},
    "45.4,-83.6": {"name": "Thompson Park / Presque Isle Light", "state": "Michigan", "precise_latitude": "45.349499", "precise_longitude": "-83.575321"},
    "32.6,-117.2": {"name": "Tijuana Slough / Imperial Beach", "state": "California", "precise_latitude": "32.554900", "precise_longitude": "-117.129940"},
    "34.0,-118.6": {"name": "Topanga Beach", "state": "California", "precise_latitude": "34.037156", "precise_longitude": "-118.583817"},
    "32.9,-117.3": {"name": "Torrey Pines", "state": "California", "precise_latitude": "32.881434", "precise_longitude": "-117.253206"},
    "41.1,-124.1": {"name": "Trinidad", "state": "California", "precise_latitude": "41.058154", "precise_longitude": "-124.150478"},
    "27.1,-82.5": {"name": "Venice", "state": "Florida", "precise_latitude": "27.110876", "precise_longitude": "-82.466537"},
    "41.4,-82.4": {"name": "Vermillion", "state": "Ohio", "precise_latitude": "41.425392", "precise_longitude": "-82.365717"},
    "36.9,-75.7": {"name": "Virgina Beach", "state": "Virginia", "precise_latitude": "36.856058", "precise_longitude": "-75.970573"},
    "41.7,-86.9": {"name": "Washington Park", "state": "Indiana", "precise_latitude": "41.729564", "precise_longitude": "-86.902540"},
    "32.7,-79.9": {"name": "Washout", "state": "South Carolina", "precise_latitude": "32.668123", "precise_longitude": "-79.908185"},
    "29.1,-95.1": {"name": "West Galveston", "state": "Texas", "precise_latitude": "29.135522", "precise_longitude": "-95.038515"},
    "46.9,-124.1": {"name": "Westport", "state": "Washington", "precise_latitude": "46.899714", "precise_longitude": "-124.135850"},
    "43.1,-87.9": {"name": "Whitefish Bay", "state": "Wisconsin", "precise_latitude": "43.115884", "precise_longitude": "-87.891638"},
    "42.7,-87.8": {"name": "Winthrop Harbor", "state": "Wisconsin", "precise_latitude": "42.475099", "precise_longitude": "-87.797379"},
    "34.2,-77.8": {"name": "Wrightsville Beach", "state": "North Carolina", "precise_latitude": "34.205976", "precise_longitude": "-77.792864"},
    "59.5,-139.8": {"name": "Yakutat", "state": "Alaska", "precise_latitude": "59.504150", "precise_longitude": "-139.766792"}
}