{
    "44.6,-87.4": {"name": "Algoma", "state": "Wisconsin", "beach_latitude": 44.609215, "beach_longitude": -87.427430, "jetty_obstructions": []}, 
    "27.8,-97.0": {"name": "Aransas Pass", "state": "Texas", "beach_latitude": 27.846859, "beach_longitude": -97.041237, "jetty_obstructions": []},
    "39.4,-74.4": {"name": "Atlantic City", "state": "New Jersey", "beach_latitude": 39.352590, "beach_longitude": -74.428619, "jetty_obstructions": []},
    "35.2,-120.7": {"name": "Avila Beach", "state": "New Jersey", "beach_latitude": 35.177941, "beach_longitude": -120.733977, "jetty_obstructions": []},
    "41.5,-82.1": {"name": "Avon Lake", "state": "Ohio", "beach_latitude": 41.499515, "beach_longitude": -82.077570, "jetty_obstructions": []},
    "21.3,-158.1": {"name": "Barbers Point", "state": "Hawaii", "beach_latitude": 21.295832, "beach_longitude": -158.106739, "jetty_obstructions": []},
    "41.5,-81.9": {"name": "Bay Village", "state": "Ohio", "beach_latitude": 41.491325, "beach_longitude": -81.934816, "jetty_obstructions": []},
    "33.0,-117.3": {"name": "Beacons / Leucadia", "state": "California", "beach_latitude": 33.064754, "beach_longitude": -117.305891, "jetty_obstructions": []},
    "38.5,-75.0": {"name": "Bethany Beach", "state": "Delaware", "beach_latitude": 38.541591, "beach_longitude": -75.053717, "jetty_obstructions": []},
    "46.9,-87.7": {"name": "Big Bay", "state": "Michigan", "beach_latitude": 46.825589, "beach_longitude": -87.710700, "jetty_obstructions": []},
    "26.4,-81.9": {"name": "Big Hickory Pass", "state": "Florida", "beach_latitude": 26.364243, "beach_longitude": -81.863257, "jetty_obstructions": []},
    "38.3,-123.1": {"name": "Bodega Bay", "state": "California", "beach_latitude": 38.309913, "beach_longitude": -123.050796, "jetty_obstructions": []},
    "33.7,-118.3": {"name": "Cabrillo Beach", "state": "California", "beach_latitude": 33.708348, "beach_longitude": -118.284228, "jetty_obstructions": [135, 235]},
    "37.0,-121.9": {"name": "Capitola / La Silva", "state": "California", "beach_latitude": 36.971140, "beach_longitude": -121.950211, "jetty_obstructions": []},
    "28.0,-82.8": {"name": "Clearwater Beach", "state": "Florida", "beach_latitude": 27.979642, "beach_longitude": -82.831624, "jetty_obstructions": []},
    "42.0,-80.6": {"name": "Conneaut", "state": "Ohio", "beach_latitude": 41.965526, "beach_longitude": -80.564275, "jetty_obstructions": []},
    "41.7,-124.2": {"name": "Crescent City", "state": "California", "beach_latitude": 41.745419, "beach_longitude": -124.178121, "jetty_obstructions": []},
    "30.2,-88.1": {"name": "Dauphin Island", "state": "Alabama", "beach_latitude": 30.230929, "beach_longitude": -88.116866, "jetty_obstructions": []},
    "36.2,-75.7": {"name": "Duck Pier", "state": "North Carolina", "beach_latitude": 36.182498, "beach_longitude": -75.750079, "jetty_obstructions": []},
    "41.7,-87.1": {"name": "Dune Acres", "state": "Indiana", "beach_latitude": 41.657789, "beach_longitude": -87.081343, "jetty_obstructions": []},
    "42.5,-79.4": {"name": "Dunkirk", "state": "New York", "beach_latitude": 42.493884, "beach_longitude": -79.355293, "jetty_obstructions": []},
    "41.5,-81.7": {"name": "Edgewater Beach Buoy", "state": "Ohio", "beach_latitude": 41.488767, "beach_longitude": -81.741796, "jetty_obstructions": []},
    "41.6,-81.6": {"name": "Euclid Beach", "state": "Ohio", "beach_latitude": 41.582238, "beach_longitude": -81.571496, "jetty_obstructions": []},
    "27.6,-97.2": {"name": "Fish Pass / J.P Luby Surf Park / Aransas Pass", "state": "Texas", "beach_latitude": 27.674387, "beach_longitude": -97.166594, "jetty_obstructions": []},
    "43.5,-82.6": {"name": "Forester / Port Sanilac", "state": "Michigan", "beach_latitude": 43.499044, "beach_longitude": -82.565987, "jetty_obstructions": []},
    "29.3,-94.8": {"name": "Galveston", "state": "Texas", "beach_latitude": 29.263559, "beach_longitude": -94.822348, "jetty_obstructions": []},
    "46.7,-86.0": {"name": "Grand Marais", "state": "Michigan", "beach_latitude": 47.749081, "beach_longitude": -90.331728, "jetty_obstructions": []},
    "41.8,-81.3": {"name": "Headlands Beach", "state": "Ohio", "beach_latitude": 41.760240, "beach_longitude": -81.288136, "jetty_obstructions": []},
    "19.7,-155.1": {"name": "Hilo Bay, Honoli'i", "state": "Hawaii", "beach_latitude": 19.755535, "beach_longitude": -155.090762, "jetty_obstructions": []},
    "26.6,-80.0": {"name": "Hilton Hotel Backyard", "state": "Florida", "beach_latitude": 26.622158, "beach_longitude": -80.035814, "jetty_obstructions": []},
    "42.8,-86.2": {"name": "Holland", "state": "Michigan", "beach_latitude": 42.771211, "beach_longitude": -86.211135, "jetty_obstructions": []},
    "26.0,-80.0": {"name": "Hollywood Beach", "state": "Florida", "beach_latitude": 26.049974, "beach_longitude": -80.112049, "jetty_obstructions": []},
    "27.8,-97.1": {"name": "Horace Caldwell Pier", "state": "Texas", "beach_latitude": 27.826973, "beach_longitude": -97.052765, "jetty_obstructions": [45]},
    "40.8,-124.2": {"name": "Humboldt Harbor", "state": "California", "beach_latitude": 40.767891, "beach_longitude": -124.232732, "jetty_obstructions": [225]},
    "46.3,-124.1": {"name": "Ilwaco / Clatsop Spit", "state": "Washington", "beach_latitude": 46.286787, "beach_longitude": -124.078968, "jetty_obstructions": []},
    "26.1,-97.1": {"name": "Isla Blanca State Park", "state": "Texas", "beach_latitude": 26.069919, "beach_longitude": -97.154540, "jetty_obstructions": []},
    "28.4,-80.6": {"name": "Jetty Park / Cape Carneval", "state": "Florida", "beach_latitude": 28.401314, "beach_longitude": -80.591028, "jetty_obstructions": [360]},
    "20.9,-156.5": {"name": "Kahului Harbor", "state": "Hawaii", "beach_latitude": 20.898607, "beach_longitude": -156.458764, "jetty_obstructions": []},
    "21.4,-157.7": {"name": "Kailua", "state": "Hawaii", "beach_latitude": 21.407651, "beach_longitude": -157.738988, "jetty_obstructions": []},
    "22.0,-159.3": {"name": "Kalapaki Beach/Nawiliwili", "state": "Hawaii", "beach_latitude": 21.960121, "beach_longitude": -159.350203, "jetty_obstructions": []},
    "21.4,-157.8": {"name": "Kanehoe Bay", "state": "Hawaii", "beach_latitude": 21.437943, "beach_longitude": -157.809484, "jetty_obstructions": []},
    "20.0,-155.9": {"name": "Kawaihae", "state": "Hawaii", "beach_latitude": 20.026620, "beach_longitude": -155.826226, "jetty_obstructions": []},
    "24.6,-81.8": {"name": "Key West", "state": "Florida", "beach_latitude": 24.567379, "beach_longitude": -81.775111, "jetty_obstructions": []},
    "32.8,-117.3": {"name": "La Jolla", "state": "California", "beach_latitude": 32.838652, "beach_longitude": -117.284504, "jetty_obstructions": []},
    "47.9,-124.2": {"name": "La Push", "state": "Washington", "beach_latitude": 47.905682, "beach_longitude": -124.636998, "jetty_obstructions": []},
    "43.0,-82.4": {"name": "Lakeside Park", "state": "Ontario", "beach_latitude": 43.205400, "beach_longitude": -79.265084, "jetty_obstructions": []},
    "36.6,-121.9": {"name": "Lovers Point", "state": "California", "beach_latitude": 36.625992, "beach_longitude": -121.915609, "jetty_obstructions": []},
    "44.0,-86.5": {"name": "Ludington", "state": "Michigan", "beach_latitude": 44.029420, "beach_longitude": -86.508050, "jetty_obstructions": []},
    "29.7,-93.7": {"name": "Mae's Beach", "state": "Texas", "beach_latitude": 29.747483, "beach_longitude": -93.664330, "jetty_obstructions": []},
    "44.3,-86.4": {"name": "Manistee", "state": "Michigan", "beach_latitude": 44.254277, "beach_longitude": -86.340356, "jetty_obstructions": []},
    "41.5,-82.7": {"name": "Marblehead", "state": "Ohio", "beach_latitude": 41.535657, "beach_longitude": -82.711067, "jetty_obstructions": []},
    "46.6,-87.4": {"name": "Marquette", "state": "Michigan", "beach_latitude": 46.565004, "beach_longitude": -87.388296, "jetty_obstructions": []},
    "25.8,-80.1": {"name": "Miami Beach", "state": "Florida", "beach_latitude": 25.790866, "beach_longitude": -80.124474, "jetty_obstructions": []},
    "36.6,-121.8": {"name": "Monterey", "state": "California", "beach_latitude": 36.607181, "beach_longitude": -121.892720, "jetty_obstructions": []},
    "43.2,-86.4": {"name": "Muskegon", "state": "Michigan", "beach_latitude": 43.234126, "beach_longitude": -86.344160, "jetty_obstructions": []},
    "26.1,-81.8": {"name": "Naples", "state": "Florida", "beach_latitude": 26.130792, "beach_longitude": -81.807312, "jetty_obstructions": []},
    "43.3,-79.1": {"name": "Niagara Shores Park", "state": "Ontario", "beach_latitude": 43.265637, "beach_longitude": -79.057723, "jetty_obstructions": []},
    "41.4,-82.5": {"name": "Nickel Plate Beach", "state": "Ohio", "beach_latitude": 41.397548, "beach_longitude": -82.538299, "jetty_obstructions": []},
    "38.3,-75.1": {"name": "Ocean City", "state": "Maryland", "beach_latitude": 38.332247, "beach_longitude": -75.081495, "jetty_obstructions": []},
    "33.9,-78.4": {"name": "Ocean Isle Beach", "state": "North Carolina", "beach_latitude": 33.885488, "beach_longitude": -78.435278, "jetty_obstructions": []},
    "33.2,-117.4": {"name": "Oceanside", "state": "California", "beach_latitude": 33.203896, "beach_longitude": -117.395556, "jetty_obstructions": []},
    "28.9,-95.3": {"name": "Octagon", "state": "Texas", "beach_latitude": 28.942621, "beach_longitude": -95.289112, "jetty_obstructions": [225]},
    "43.3,-78.7": {"name": "Olcott Harbor", "state": "New York", "beach_latitude": 43.340189, "beach_longitude": -78.714378, "jetty_obstructions": []},
    "43.3,-77.6": {"name": "Ontario Beach", "state": "New York", "beach_latitude": 43.261284, "beach_longitude": -77.608006, "jetty_obstructions": []},
    "41.7,-81.4": {"name": "Overlook Beach Park", "state": "Ohio", "beach_latitude": 41.713571, "beach_longitude": -81.379248, "jetty_obstructions": []},
    "36.8,-121.9": {"name": "Pajora Dunes", "state": "California", "beach_latitude": 36.808862, "beach_longitude": -121.791268, "jetty_obstructions": []},
    "30.2,-85.9": {"name": "Panama City Beach", "state": "Florida", "beach_latitude": 30.217175, "beach_longitude": -85.893762, "jetty_obstructions": []},
    "38.9,-123.7": {"name": "Point Arena", "state": "California", "beach_latitude": 38.9141231, "beach_longitude": -123.710810, "jetty_obstructions": []},
    "38.0,-123.0": {"name": "Point Reyes", "state": "California", "beach_latitude": 38.047172, "beach_longitude": -122.995578, "jetty_obstructions": []},
    "28.4,-96.3": {"name": "Port Oconnor Jetties", "state": "Texas", "beach_latitude": 28.419233, "beach_longitude": -96.334308, "jetty_obstructions": [45]},
    "42.7, -124.5": {"name": "Port Orford", "state": "Oregon", "beach_latitude": 42.740348, "beach_longitude": -124.497755, "jetty_obstructions": []},
    "42.9,-86.2": {"name": "Port Sheldon / Holland Buoy", "state": "Michigan", "beach_latitude": 42.909950, "beach_longitude": -86.216215, "jetty_obstructions": []},
    "43.4,-87.9": {"name": "Port Washington", "state": "Wisconsin", "beach_latitude": 43.391798, "beach_longitude": -87.863240, "jetty_obstructions": []},
    "47.7,-124.4": {"name": "Ruby Beach / Destruction Island", "state": "Washington", "beach_latitude": 47.710866, "beach_longitude": -124.416445, "jetty_obstructions": []},
    "21.3,-157.9": {"name": "Sand Island", "state": "Hawaii", "beach_latitude": 21.298808, "beach_longitude": -157.875462, "jetty_obstructions": []},
    "34.4,-119.7": {"name": "Sand Spit", "state": "California", "beach_latitude": 34.403974, "beach_longitude": -119.688241, "jetty_obstructions": []},
    "34.0,-118.5": {"name": "Santa Monica Pier", "state": "California", "beach_latitude": 34.000477, "beach_longitude": -118.494444, "jetty_obstructions": []},
    "27.9,-80.4": {"name": "Sebastian Inlet", "state": "Florida", "beach_latitude": 27.863142, "beach_longitude": -80.447059, "jetty_obstructions": [135]},
    "43.8,-87.7": {"name": "Sheboygan / North Point the Elbow", "state": "Wisconsin", "beach_latitude": 43.764084, "beach_longitude": -87.694549, "jetty_obstructions": []},
    "57.1,-135.4": {"name": "Sitka", "state": "Alaska", "beach_latitude": 57.074964, "beach_longitude": -135.372887, "jetty_obstructions": []},
    "44.6,-124.1": {"name": "South Beach", "state": "Oregon", "beach_latitude": 44.604965, "beach_longitude": -124.068044, "jetty_obstructions": [315]},
    "42.4,-86.3": {"name": "South Haven", "state": "Michigan", "beach_latitude": 42.403940, "beach_longitude": -86.284202, "jetty_obstructions": []},
    "26.1,-97.2": {"name": "South Padre Island", "state": "Texas", "beach_latitude": 26.100124, "beach_longitude": -97.161592, "jetty_obstructions": [180]},
    "33.7,-78.9": {"name": "Springmaid Beach", "state": "South Carolina", "beach_latitude": 33.680565, "beach_longitude": -78.888490, "jetty_obstructions": []},
    "29.8,-81.3": {"name": "St Augustine Pier", "state": "Florida", "beach_latitude": 29.853982, "beach_longitude": -81.264199, "jetty_obstructions": []},
    "42.1,-86.5": {"name": "St. Joseph", "state": "Michigan", "beach_latitude": 42.110274, "beach_longitude": -86.491574, "jetty_obstructions": []},
    "42.2,-80.1": {"name": "Stone Jetty", "state": "Pennsylvania", "beach_latitude": 42.159330, "beach_longitude": -80.127867, "jetty_obstructions": []},
    "44.2,-83.5": {"name": "Tawas Point", "state": "Michigan", "beach_latitude": 44.244083, "beach_longitude": -83.448546, "jetty_obstructions": []},
    "45.4,-83.6": {"name": "Thompson Park / Presque Isle Light", "state": "Michigan", "beach_latitude": 45.349499, "beach_longitude": -83.575321, "jetty_obstructions": []},
    "32.6,-117.2": {"name": "Tijuana Slough / Imperial Beach", "state": "California", "beach_latitude": 32.554900, "beach_longitude": -117.129940, "jetty_obstructions": []},
    "34.0,-118.6": {"name": "Topanga Beach", "state": "California", "beach_latitude": 34.037156, "beach_longitude": -118.583817, "jetty_obstructions": []},
    "32.9,-117.3": {"name": "Torrey Pines", "state": "California", "beach_latitude": 32.881434, "beach_longitude": -117.253206, "jetty_obstructions": []},
    "41.1,-124.1": {"name": "Trinidad", "state": "California", "beach_latitude": 41.058154, "beach_longitude": -124.150478, "jetty_obstructions": []},
    "27.1,-82.5": {"name": "Venice", "state": "Florida", "beach_latitude": 27.110876, "beach_longitude": -82.466537, "jetty_obstructions": []},
    "41.4,-82.4": {"name": "Vermillion", "state": "Ohio", "beach_latitude": 41.425392, "beach_longitude": -82.365717, "jetty_obstructions": []},
    "36.9,-75.7": {"name": "Virgina Beach", "state": "Virginia", "beach_latitude": 36.856058, "beach_longitude": -75.970573, "jetty_obstructions": []},
    "41.7,-86.9": {"name": "Washington Park", "state": "Indiana", "beach_latitude": 41.729564, "beach_longitude": -86.902540, "jetty_obstructions": []},
    "32.7,-79.9": {"name": "Washout", "state": "South Carolina", "beach_latitude": 32.668123, "beach_longitude": -79.908185, "jetty_obstructions": []},
    "29.1,-95.1": {"name": "West Galveston", "state": "Texas", "beach_latitude": 29.135522, "beach_longitude": -95.038515, "jetty_obstructions": []},
    "46.9,-124.1": {"name": "Westport", "state": "Washington", "beach_latitude": 46.899714, "beach_longitude": -124.135850, "jetty_obstructions": [360]},
    "43.1,-87.9": {"name": "Whitefish Bay", "state": "Wisconsin", "beach_latitude": 43.115884, "beach_longitude": -87.891638, "jetty_obstructions": []},
    "42.7,-87.8": {"name": "Winthrop Harbor", "state": "Wisconsin", "beach_latitude": 42.475099, "beach_longitude": -87.797379, "jetty_obstructions": []},
    "34.2,-77.8": {"name": "Wrightsville Beach", "state": "North Carolina", "beach_latitude": 34.205976, "beach_longitude": -77.792864, "jetty_obstructions": []},
    "59.5,-139.8": {"name": "Yakutat", "state": "Alaska", "beach_latitude": 59.504150, "beach_longitude": -139.766792, "jetty_obstructions": []}
}